restaurant_id,restaurant_name,url,restaurant_type,rating_average,num_of_reviews,price_level,address,latitude,longitude,phone,created_at,district
1,Nhà hàng NHÀ BẾP CHỢ HÀN,https://www.google.com/maps/place/Nh%C3%A0+h%C3%A0ng+NH%C3%80+B%E1%BA%BEP+CH%E1%BB%A2+H%C3%80N/data=!4m7!3m6!1s0x3142192dea33553f:0x67195ccda4ab2f7f!8m2!3d16.0687376!4d108.2243375!16s%2Fg%2F11t9c4w9cn!19sChIJP1Uz6i0ZQjERfy-rpM1cGWc?authuser=0&hl=en&rclk=1,Vietnamese restaurant,4.7,4406,₫100–200K,"22 Hùng Vương, Hải Châu 1, Hải Châu, Đà Nẵng 550000",16.0686874,108.2243118,2363966268,2025-03-20 23:52:16.330,Hải Châu
2,Thìa Gỗ Restaurant Da Nang,https://www.google.com/maps/place/Th%C3%ACa+G%E1%BB%97+Restaurant+Da+Nang/data=!4m7!3m6!1s0x314219c3b54c18d7:0x5028941bdf1ab5f5!8m2!3d16.0529867!4d108.2415777!16s%2Fg%2F11f3q_8q_1!19sChIJ1xhMtcMZQjER9bUa3xuUKFA?authuser=0&hl=en&rclk=1,Vietnamese restaurant,4.8,6339,₫100–200K,"53 Phan Thúc Duyện, Bắc Mỹ Phú, Ngũ Hành Sơn, Đà Nẵng 550000",16.0529366,108.2415619,2363689005,2025-03-21 00:31:56.500,Ngũ Hành Sơn
3,Bếp Cuốn Đà Nẵng,https://www.google.com/maps/place/B%E1%BA%BFp+Cu%E1%BB%91n+%C4%90%C3%A0+N%E1%BA%B5ng/data=!4m7!3m6!1s0x314217f4632748f9:0xdc14dcdba4c73425!8m2!3d16.0579628!4d108.2451505!16s%2Fg%2F11hz90gsyw!19sChIJ-UgnY_QXQjERJTTHpNvcFNw?authuser=0&hl=en&rclk=1,Vietnamese restaurant,4.8,7430,₫100–300K,"31-33 Trần Bạch Đằng, Phước Mỹ, Sơn Trà, Đà Nẵng 550000",16.0579376,108.2451859,702689989,2025-03-21 01:14:41.647,Sơn Trà
4,Cô Ba Phở bò,https://www.google.com/maps/place/C%C3%B4+Ba+Ph%E1%BB%9F+b%C3%B2/data=!4m7!3m6!1s0x31421983c3938141:0x37c54767199e5f7!8m2!3d16.0669705!4d108.2247188!16s%2Fg%2F11gnpx_f59!19sChIJQYGTw4MZQjER9-WZcXZUfAM?authuser=0&hl=en&rclk=1,Restaurant,4.8,5432,₫100–200K,"154 Bạch Đằng, Hải Châu 1, Hải Châu, Đà Nẵng 550000",16.0669384,108.2246857,2363996268,2025-03-21 02:05:42.390,Hải Châu
5,Nhà Hàng Nhà Bếp Khuê Mỹ,https://www.google.com/maps/place/Nh%C3%A0+H%C3%A0ng+Nh%C3%A0+B%E1%BA%BFp+Khu%C3%AA+M%E1%BB%B9/data=!4m7!3m6!1s0x314217663351e53f:0xd4abb06eb42b456c!8m2!3d16.0419366!4d108.2482737!16s%2Fg%2F11hc_0pl51!19sChIJP-VRM2YXQjERbEUrtG6wq9Q?authuser=0&hl=en&rclk=1,Vietnamese restaurant,4.6,4290,₫100–200K,"416 Võ Nguyên Giáp, Bắc Mỹ An, Ngũ Hành Sơn, Đà Nẵng 550000",16.0419369,108.2483139,2363958080,2025-03-21 02:44:52.247,Ngũ Hành Sơn
6,Sky View Restaurant,https://www.google.com/maps/place/Sky+View+Restaurant/data=!4m7!3m6!1s0x3142179ce12f3489:0xe9d21eb1e28da76e!8m2!3d16.0676095!4d108.2447798!16s%2Fg%2F11gr1h3_31!19sChIJiTQv4ZwXQjERbqeN4rEe0uk?authuser=0&hl=en&rclk=1,Fine dining restaurant,4.8,650,Unknown,"216 Võ Nguyên Giáp, Phước Mỹ, Sơn Trà, Đà Nẵng 550000",16.0675621,108.244812,2363928688,2025-03-21 03:26:35.977,Sơn Trà
7,Ăn Thôi Restaurant,https://www.google.com/maps/place/%C4%82n+Th%C3%B4i+Restaurant/data=!4m7!3m6!1s0x3142194921d15361:0xdd9637b7caf7eb1f!8m2!3d16.0682463!4d108.2248133!16s%2Fg%2F11tfk6fw62!19sChIJYVPRIUkZQjERH-v3yrc3lt0?authuser=0&hl=en&rclk=1,Vietnamese restaurant,4.6,2636,₫100–200K,"114 Bạch Đằng, Hải Châu 1, Hải Châu, Đà Nẵng 550000",16.0681877,108.2248154,987824285,2025-03-21 04:17:22.507,Hải Châu
8,Red Sky Steakhouse,https://www.google.com/maps/place/Red+Sky+Steakhouse/data=!4m7!3m6!1s0x314219cd2416f17f:0x23cfcbfc9375196c!8m2!3d16.062867!4d108.2231386!16s%2Fg%2F1hc10d7m2!19sChIJf_EWJM0ZQjERbBl1k_zLzyM?authuser=0&hl=en&rclk=1,Steak house,4.6,925,₫₫,"248 Trần Phú, Phước Ninh, Hải Châu, Đà Nẵng 550000",16.0628128,108.2231903,905727576,2025-03-21 04:56:36.617,Hải Châu
9,MAAZI Da Nang,https://www.google.com/maps/place/MAAZI+Da+Nang/data=!4m7!3m6!1s0x314219835d28a4a9:0xf4af19405433f45f!8m2!3d16.0622581!4d108.2231675!16s%2Fg%2F11khx0r1y9!19sChIJqaQoXYMZQjERX_QzVEAZr_Q?authuser=0&hl=en&rclk=1,Indian restaurant,4.8,2683,₫100–200K,"264 Trần Phú, Phước Ninh, Hải Châu, Đà Nẵng 700000",16.0623131,108.2231903,2363522211,2025-03-21 06:01:59.347,Hải Châu
10,Redcrab Danang,https://www.google.com/maps/place/Redcrab+Danang/data=!4m7!3m6!1s0x3142192672c12bb7:0x5dd790e0afb1d4ac!8m2!3d16.0706067!4d108.2359242!16s%2Fg%2F11scy8slns!19sChIJtyvBciYZQjERrNSxr-CQ110?authuser=0&hl=en&rclk=1,Traditional restaurant,4.8,1319,Unknown,"138 Phạm Văn Đồng, street, Sơn Trà, Đà Nẵng 550000",16.0705624,108.235939,934724919,2025-03-21 15:09:43.947,Sơn Trà
11,Nhà Bếp Xưa Restaurant,https://www.google.com/maps/place/Nh%C3%A0+B%E1%BA%BFp+X%C6%B0a+Restaurant/data=!4m7!3m6!1s0x314217f1aeaab4db:0xef0467544cfd59ae!8m2!3d16.066058!4d108.2443163!16s%2Fg%2F11s1s1qjt9!19sChIJ27SqrvEXQjERrln9TFRnBO8?authuser=0&hl=en&rclk=1,Vietnamese restaurant,4.8,5819,₫100–200K,"64B Hà Bổng, Phước Mỹ, Sơn Trà, Đà Nẵng 550000",16.0660629,108.2443161,906123858,2025-03-21 15:30:05.413,Sơn Trà
12,LoCo Restaurant - Danang seafood restaurant - 다낭 레스토랑,https://www.google.com/maps/place/LoCo+Restaurant+-+Danang+seafood+restaurant+-+%EB%8B%A4%EB%82%AD+%EB%A0%88%EC%8A%A4%ED%86%A0%EB%9E%91/data=!4m7!3m6!1s0x31421977569bbd1f:0xa664a343c71a38a1!8m2!3d16.0715002!4d108.2241655!16s%2Fg%2F11lh55xbhg!19sChIJH72bVncZQjERoTgax0OjZKY?authuser=0&hl=en&rclk=1,Restaurant,4.8,2288,₫₫,"1C Đ. Lê Duẩn, P, Hải Châu, Đà Nẵng 550000",16.0715618,108.2241898,906456785,2025-03-21 16:09:03.457,Hải Châu
13,Nhà Hàng Si Dining,https://www.google.com/maps/place/Nh%C3%A0+H%C3%A0ng+Si+Dining/data=!4m7!3m6!1s0x314217ac96f771cb:0x5dc112dabcab9bfd!8m2!3d16.0302295!4d108.2380523!16s%2Fg%2F11sxynmqgm!19sChIJy3H3lqwXQjER_ZurvNoSwV0?authuser=0&hl=en&rclk=1,Italian restaurant,4.9,461,"₫1,000,000+","1 Giang Châu 2 Phường Khuê Mỹ, Quận Ngũ Hành Sơn Da Nang City, 550000",16.0301876,108.23806,774464441,2025-03-21 20:04:39.537,Ngũ Hành Sơn
14,Nhà hàng Làn Gió,https://www.google.com/maps/place/Nh%C3%A0+h%C3%A0ng+L%C3%A0n+Gi%C3%B3/data=!4m7!3m6!1s0x314219d1a3a91435:0x57b4d75446272396!8m2!3d16.0666296!4d108.2238222!16s%2Fg%2F11wmzh9n6k!19sChIJNRSpo9EZQjERliMnRlTXtFc?authuser=0&hl=en&rclk=1,Vietnamese restaurant,4.9,1066,Unknown,"169 Trần Phú, Hải Châu 1, Hải Châu, Đà Nẵng 550000",16.0666866,108.2238159,973972074,2025-03-21 22:30:40.427,Hải Châu
15,Nhà hàng Thiên Kim,https://www.google.com/maps/place/Nh%C3%A0+h%C3%A0ng+Thi%C3%AAn+Kim/data=!4m7!3m6!1s0x3134534782f65cc3:0xf8dabd543067b250!8m2!3d16.0666255!4d108.2246894!16s%2Fg%2F11stz8w28c!19sChIJw1z2gkdTNDERULJnMFS92vg?authuser=0&hl=en&rclk=1,Restaurant,4.8,6136,₫100–300K,"166 Bạch Đằng, Hải Châu 1, Hải Châu, Đà Nẵng 550000",16.0666866,108.2246857,773566882,2025-03-21 22:59:30.207,Hải Châu
16,MeliOh Bistro Danang,https://www.google.com/maps/place/MeliOh+Bistro+Danang/data=!4m7!3m6!1s0x31421989d7ab6465:0x2154c03feb794a2d!8m2!3d16.0479831!4d108.2275127!16s%2Fg%2F11pcw49_s3!19sChIJZWSr14kZQjERLUp56z_AVCE?authuser=0&hl=en&rclk=1,Restaurant,4.6,308,Unknown,"A4 Đảo Xanh 4, Khu Biệt Thự Đảo Xanh, Hải Châu, Đà Nẵng 550000",16.0479374,108.227562,905263891,2025-03-22 12:26:23.987,Hải Châu
17,SIX ON SIX CAFE - BRUNCH & RESTAURANT,https://www.google.com/maps/place/SIX+ON+SIX+CAFE+-+BRUNCH+%26+RESTAURANT/data=!4m7!3m6!1s0x31421766e7e7a589:0xd9a579d9ca3dd6d!8m2!3d16.0432336!4d108.2442276!16s%2Fg%2F11dy_jx_2d!19sChIJiaXn52YXQjERbd2jnJ1Xmg0?authuser=0&hl=en&rclk=1,Restaurant,4.8,1664,₫100–200K,"64 Bà Huyện Thanh Quan, Bắc Mỹ An, Ngũ Hành Sơn, Đà Nẵng 550000",16.0431881,108.2441864,946114967,2025-03-22 12:59:49.923,Ngũ Hành Sơn
18,Mỳ Quảng Cô Sáu,https://www.google.com/maps/place/M%E1%BB%B3+Qu%E1%BA%A3ng+C%C3%B4+S%C3%A1u/data=!4m7!3m6!1s0x3142195f06b31c81:0x1fe1c46b146c5f24!8m2!3d16.0661787!4d108.2296635!16s%2Fg%2F11h7qry5zx!19sChIJgRyzBl8ZQjERJF9sFGvE4R8?authuser=0&hl=en&rclk=1,Restaurant,4.7,880,"₫1–100,000","397 Đ. Trần Hưng Đạo, An Hải Trung, Sơn Trà, Đà Nẵng 550000",16.0661869,108.2296906,963982634,2025-03-22 13:44:00.450,Sơn Trà
19,EMO'S HOMECOOKED VIETNAMESE CUISINE,https://www.google.com/maps/place/EMO%27S+HOMECOOKED+VIETNAMESE+CUISINE/data=!4m7!3m6!1s0x314217641a07b4ef:0xe08cfd4c0fee906f!8m2!3d16.0581569!4d108.2454323!16s%2Fg%2F11d_tz40q7!19sChIJ77QHGmQXQjERb5DuD0z9jOA?authuser=0&hl=en&rclk=1,Vietnamese restaurant,4.8,2232,₫100–200K,"Đường Mỹ Khê 4, Phước Mỹ, Sơn Trà, Đà Nẵng 550000",16.0581875,108.2454376,934844988,2025-03-22 14:30:42.140,Sơn Trà
20,Restaurant PHỞ HOUSE,https://www.google.com/maps/place/Restaurant+PH%E1%BB%9E+HOUSE/data=!4m7!3m6!1s0x314219e6bf47737f:0x6878c75f48c9c205!8m2!3d16.0347606!4d108.2296899!16s%2Fg%2F11kqs7zfdh!19sChIJf3NHv-YZQjERBcLJSF_HeGg?authuser=0&hl=en&rclk=1,Restaurant,4.7,413,₫100–200K,"111 Nại Nam 8, Hoà Cường Bắc, Hải Châu, Đà Nẵng",16.0348129,108.2296906,708352141,2025-03-22 15:12:30.183,Hải Châu
21,Nhà Hàng Chay Ngọc Chi - Vegetarian Restaurant Michelin guide 2024,https://www.google.com/maps/place/Nh%C3%A0+H%C3%A0ng+Chay+Ng%E1%BB%8Dc+Chi+-+Vegetarian+Restaurant+Michelin+guide+2024/data=!4m7!3m6!1s0x314218333e6f093f:0x93629be0d4939e13!8m2!3d16.0618803!4d108.2174326!16s%2Fg%2F1trtrszc!19sChIJPwlvPjMYQjERE56T1OCbYpM?authuser=0&hl=en&rclk=1,Vegetarian restaurant,4.6,971,"₫1–100,000","202 Hoàng Diệu, Nam Dương, Hải Châu, Đà Nẵng 550000",16.0619373,108.2174377,935085088,2025-03-22 15:31:34.860,Hải Châu
22,Anchor Beer Club,https://www.google.com/maps/place/Anchor+Beer+Club/data=!4m7!3m6!1s0x314219b522bfd755:0xfdea89c224650826!8m2!3d16.0634057!4d108.2117934!16s%2Fg%2F11ckr6dzpv!19sChIJVde_IrUZQjERJghlJMKJ6v0?authuser=0&hl=en&rclk=1,Restaurant,4.4,342,₫₫₫,"29 Quang Dũng, Vĩnh Trung, Thanh Khê, Đà Nẵng 550000",16.0634384,108.2118149,379172285,2025-03-22 16:26:13.847,Thanh Khê
23,Nhà Hàng Đà Nẵng - Ho Xanh Restaurant,https://www.google.com/maps/place/Nh%C3%A0+H%C3%A0ng+%C4%90%C3%A0+N%E1%BA%B5ng+-+Ho+Xanh+Restaurant/data=!4m7!3m6!1s0x314219fa3a78b1df:0x57f7ec7f5d722471!8m2!3d16.0626895!4d108.2128037!16s%2Fg%2F11m8rh5194!19sChIJ37F4OvoZQjERcSRyXX_s91c?authuser=0&hl=en&rclk=1,Restaurant,4.0,177,₫₫,"K 1 Đỗ Quang, Vĩnh Trung, Thanh Khê, Đà Nẵng 550000",16.0626869,108.2128143,905718477,2025-03-22 21:11:12.577,Thanh Khê
24,Benaras Central Da Nang,https://www.google.com/maps/place/Benaras+Central+Da+Nang/data=!4m7!3m6!1s0x3142114786b68157:0x7f5c53574c396aac!8m2!3d16.0557029!4d108.2436136!16s%2Fg%2F11k4ypwdxw!19sChIJV4G2hkcRQjERrGo5TFdTXH8?authuser=0&hl=en&rclk=1,Indian restaurant,4.1,202,Unknown,"207 Nguyễn Văn Thoại, Anh Hai Dong, Sơn Trà, Đà Nẵng 550000",16.055687,108.2435608,961888597,2025-03-22 22:19:32.750,Sơn Trà
25,Takoyaki Hatachi Da Nang,https://www.google.com/maps/place/Takoyaki+Hatachi+Da+Nang/data=!4m7!3m6!1s0x314219a7f20035bb:0x473af075639eed1a!8m2!3d16.0617658!4d108.2090389!16s%2Fg%2F11mv_bt2dc!19sChIJuzUA8qcZQjERGu2eY3XwOkc?authuser=0&hl=en&rclk=1,Takoyaki restaurant,4.9,64,"₫1–100,000","118 Phan Thanh, Thạc Gián, Thanh Khê, Đà Nẵng 550000",16.0618134,108.2090607,917012369,2025-03-22 23:16:43.770,Thanh Khê
26,Le Rendez Vous,https://www.google.com/maps/place/Le+Rendez+Vous/data=!4m7!3m6!1s0x31421839596606ab:0xce410a60dc47ec05!8m2!3d16.0692531!4d108.2426405!16s%2Fg%2F11b90fg28t!19sChIJqwZmWTkYQjERBexH3GAKQc4?authuser=0&hl=en&rclk=1,French restaurant,4.3,559,"₫1,000,000+","26 Nguyễn Cao Luyện, An Hải Bắc, Sơn Trà, Đà Nẵng 55000",16.069313,108.242691,905441956,2025-03-23 09:25:25.310,Sơn Trà
27,Bún Bò Bà Rơi,https://www.google.com/maps/place/B%C3%BAn+B%C3%B2+B%C3%A0+R%C6%A1i/data=!4m7!3m6!1s0x314219a36393cfd5:0x47f6c1f0cc797cce!8m2!3d16.0537181!4d108.2214331!16s%2Fg%2F11qc8jwwmk!19sChIJ1c-TY6MZQjERznx5zPDB9kc?authuser=0&hl=en&rclk=1,Noodle shop,4.5,199,"₫1–100,000","5 Phan Thành Tài, Hòa Thuận Đông, Hải Châu, Đà Nẵng 550000",16.053688,108.2214355,704196497,2025-03-23 09:27:47.143,Hải Châu
28,Quán Tý,https://www.google.com/maps/place/Qu%C3%A1n+T%C3%BD/data=!4m7!3m6!1s0x314217b43c2e8da1:0x87b96ffd911858ab!8m2!3d16.0489376!4d108.2450191!16s%2Fg%2F11txy50nqv!19sChIJoY0uPLQXQjERq1gYkf1vuYc?authuser=0&hl=en&rclk=1,Vietnamese restaurant,4.3,87,"₫1–100,000","5 An Thượng 6, Bắc Mỹ Phú, Ngũ Hành Sơn, Đà Nẵng 550000",16.0489368,108.2450638,979298398,2025-03-23 09:53:25.670,Ngũ Hành Sơn
29,Ẩm Thực Năm Hiền - Bánh Xèo Tôm Nhảy,https://www.google.com/maps/place/%E1%BA%A8m+Th%E1%BB%B1c+N%C4%83m+Hi%E1%BB%81n+-+B%C3%A1nh+X%C3%A8o+T%C3%B4m+Nh%E1%BA%A3y/data=!4m7!3m6!1s0x314219b48c51adc5:0x53338f0060c206a0!8m2!3d16.0646855!4d108.2079332!16s%2Fg%2F11bwp1q2r_!19sChIJxa1RjLQZQjERoAbCYACPM1M?authuser=0&hl=en&rclk=1,Vietnamese restaurant,4.0,852,"₫1–100,000","46 Phan Thanh, Thạc Gián, Thanh Khê, Đà Nẵng 550000",16.0646877,108.2079391,905684246,2025-03-23 10:10:29.710,Thanh Khê
30,Indian Ganga Restaurant Da Nang - Indian Restaurant,https://www.google.com/maps/place/Indian+Ganga+Restaurant+Da+Nang+-+Indian+Restaurant/data=!4m7!3m6!1s0x314217ab3c35a2df:0x24b1e85b67502a7!8m2!3d16.0483942!4d108.2436262!16s%2Fg%2F11ss5n06wm!19sChIJ36I1PKsXQjERpwJ1toUeSwI?authuser=0&hl=en&rclk=1,Indian restaurant,4.8,1825,₫100–200K,"79 Mai Thúc Lân, Bắc Mỹ Phú, Ngũ Hành Sơn, Đà Nẵng 550000",16.0484371,108.2436905,899870554,2025-03-23 10:51:32.733,Ngũ Hành Sơn
31,Cơm tấm Bà Lang,https://www.google.com/maps/place/C%C6%A1m+t%E1%BA%A5m+B%C3%A0+Lang/data=!4m7!3m6!1s0x3142183322607a9d:0x7388864186c35564!8m2!3d16.0652368!4d108.2222437!16s%2Fg%2F11dzd69qm1!19sChIJnXpgIjMYQjERZFXDhkGGiHM?authuser=0&hl=en&rclk=1,Vietnamese restaurant,4.3,730,"₫1–100,000","120 Yên Bái, Phước Ninh, Hải Châu, Đà Nẵng 550000",16.0651875,108.2221909,772599599,2025-03-23 12:00:34.393,Hải Châu
32,Bánh Xèo Bà Dưỡng,https://www.google.com/maps/place/B%C3%A1nh+X%C3%A8o+B%C3%A0+D%C6%B0%E1%BB%A1ng/data=!4m7!3m6!1s0x314219ca278828ad:0xe50ace1cbe8f6f9f!8m2!3d16.0588772!4d108.216166!16s%2Fg%2F11csqxxgqn!19sChIJrSiIJ8oZQjERn2-PvhzOCuU?authuser=0&hl=en&rclk=1,Vietnamese restaurant,4.3,7977,"₫1–100,000","280/23 Hoàng Diệu, Bình Hiên, Hải Châu, Đà Nẵng 550000",16.0589371,108.2161865,2363873168,2025-03-23 12:34:39.470,Hải Châu
33,PHỞ 24 - ĐÀ NẴNG,https://www.google.com/maps/place/PH%E1%BB%9E+24+-+%C4%90%C3%80+N%E1%BA%B4NG/data=!4m7!3m6!1s0x314219afe5133315:0xfefd2c1ac9946afc!8m2!3d16.0533386!4d108.2024189!16s%2Fg%2F11d_d3kzls!19sChIJFTMT5a8ZQjER_GqUyRos_f4?authuser=0&hl=en&rclk=1,Pho restaurant,3.9,146,"₫1–100,000","Quầy B, Sân Bay Quốc Nội Đà Nẵng, Duy Tân, Hòa Thuận Tây, Hải Châu, Đà Nẵng 550000",16.0533123,108.2024384,2363991184,2025-03-23 13:24:38.040,Hải Châu
34,Nhà hàng Madame Lân,https://www.google.com/maps/place/Nh%C3%A0+h%C3%A0ng+Madame+L%C3%A2n/data=!4m7!3m6!1s0x31421831ce4d457b:0xc2f54574a65b6322!8m2!3d16.0814063!4d108.2232528!16s%2Fg%2F11b7vz9kgm!19sChIJe0VNzjEYQjERImNbpnRF9cI?authuser=0&hl=en&rclk=1,Restaurant,4.2,9862,₫₫,"04 Bạch Đằng, Thạch Thang, Hải Châu, Đà Nẵng 550000",16.0814381,108.2233124,905697555,2025-03-23 18:40:09.343,Hải Châu
35,MAD PLATTER Bar & Restaurant,https://www.google.com/maps/place/MAD+PLATTER+Bar+%26+Restaurant/data=!4m7!3m6!1s0x31421749176fe369:0xb83e22faa15ecf13!8m2!3d16.0665398!4d108.2460323!16s%2Fg%2F11svjsh2_b!19sChIJaeNvF0kXQjERE89eofoiPrg?authuser=0&hl=en&rclk=1,Restaurant,4.6,632,Unknown,"Lot 07 Võ Nguyên Giáp, Phước Mỹ, Sơn Trà, Đà Nẵng 550000",16.0665627,108.2460632,878862081,2025-03-23 19:25:54.627,Sơn Trà
36,ISH - The Indian Restaurant,https://www.google.com/maps/place/ISH+-+The+Indian+Restaurant/data=!4m7!3m6!1s0x31421941e6b07ad7:0x6e429370204ad953!8m2!3d16.0629682!4d108.2303496!16s%2Fg%2F11vwvzvttm!19sChIJ13qw5kEZQjERU9lKIHCTQm4?authuser=0&hl=en&rclk=1,Indian restaurant,4.7,207,₫100–200K,"507 Đ. Trần Hưng Đạo, An Hải Trung, Sơn Trà, Đà Nẵng 550000",16.0629368,108.2303162,386432514,2025-03-23 20:50:29.760,Sơn Trà
37,Tuyen Son Restaurant,https://www.google.com/maps/place/Tuyen+Son+Restaurant/data=!4m7!3m6!1s0x3142175f0a556fb5:0xded9f2d1a31a1e96!8m2!3d16.0605924!4d108.2050233!16s%2Fg%2F11b5qvvpkr!19sChIJtW9VCl8XQjERlh4ao9Hy2d4?authuser=0&hl=en&rclk=1,Vietnamese restaurant,3.8,724,₫100–200K,"148 Nguyễn Tri Phương, Chính Gián, Thanh Khê, Đà Nẵng 550000",16.0605621,108.2050629,905336549,2025-03-23 21:32:26.020,Thanh Khê
38,Ngon Thi Hoa Restaurant,https://www.google.com/maps/place/Ngon+Thi+Hoa+Restaurant/data=!4m7!3m6!1s0x314217f73d08ac15:0x8e8c11da1f1becf!8m2!3d16.0489222!4d108.245814!16s%2Fg%2F11j79lpf_3!19sChIJFawIPfcXQjERz77xoR3B6Ag?authuser=0&hl=en&rclk=1,Vietnamese restaurant,4.2,1106,₫₫,"100 Lê Quang Đạo, Str, Ngũ Hành Sơn, Đà Nẵng 550000",16.0489368,108.2458115,967220100,2025-03-23 22:13:09.247,Ngũ Hành Sơn
39,"Shamballa Vegetarian, Greenhouse & Rooftop Bar - Da Nang","https://www.google.com/maps/place/Shamballa+Vegetarian,+Greenhouse+%26+Rooftop+Bar+-+Da+Nang/data=!4m7!3m6!1s0x314219fb83f4da6f:0x68819808031db12e!8m2!3d16.0758608!4d108.2289924!16s%2Fg%2F11jycm852w!19sChIJb9r0g_sZQjERLrEdAwiYgWg?authuser=0&hl=en&rclk=1",Vegetarian restaurant,4.8,553,₫,"277 Đ. Trần Hưng Đạo, An Hải Bắc, Sơn Trà, Đà Nẵng 550000",16.0758133,108.2289352,775648668,2025-03-23 22:55:31.893,Sơn Trà
40,Rasoi Indian Pure veg restaurant,https://www.google.com/maps/place/Rasoi+Indian+Pure+veg+restaurant/data=!4m7!3m6!1s0x31421992fdc4687d:0x10c3dc52e56b59cb!8m2!3d16.0484972!4d108.2461956!16s%2Fg%2F11nm9t0zvp!19sChIJfWjE_ZIZQjERy1lr5VLcwxA?authuser=0&hl=en&rclk=1,Indian restaurant,4.6,1278,₫100–200K,"201 Lê Quang Đạo, Bắc Mỹ Phú, Ngũ Hành Sơn, Đà Nẵng 550000",16.0484371,108.2461853,379969559,2025-03-23 23:43:36.073,Ngũ Hành Sơn
42,Nhà Hàng 3 Big - Nướng & Lẩu Hàn Quốc,https://www.google.com/maps/place/Nh%C3%A0+H%C3%A0ng+3+Big+-+N%C6%B0%E1%BB%9Bng+%26+L%E1%BA%A9u+H%C3%A0n+Qu%E1%BB%91c/data=!4m7!3m6!1s0x31421917b3f6f603:0xb2e30c5e8fc363f5!8m2!3d16.0639665!4d108.2197333!16s%2Fg%2F11rgrrjxrv!19sChIJA_b2sxcZQjER9WPDj14M47I?authuser=0&hl=en&rclk=1,Buffet restaurant,4.9,11891,₫100–200K,"134 Phan Châu Trinh, Phước Ninh, Hải Châu, Đà Nẵng 550000",16.0639381,108.2196884,2363569000,2025-03-21 13:49:35.060,Hải Châu
43,Cardi Pizzeria Bạch Đằng,https://www.google.com/maps/place/Cardi+Pizzeria+B%E1%BA%A1ch+%C4%90%E1%BA%B1ng/data=!4m7!3m6!1s0x3142199318c6349f:0xa838827f192464e4!8m2!3d16.067733!4d108.2247892!16s%2Fg%2F11tf3pj5x_!19sChIJnzTGGJMZQjER5GQkGX-COKg?authuser=0&hl=en&rclk=1,Steak house,4.8,1693,Unknown,"124 Bạch Đằng, P, Hải Châu, Đà Nẵng 55000",16.067688,108.2248154,989232315,2025-03-21 15:24:18.457,Hải Châu
44,Nhà Gỗ Restaurant Da Nang,https://www.google.com/maps/place/Nh%C3%A0+G%E1%BB%97+Restaurant+Da+Nang/data=!4m7!3m6!1s0x3142196e455d2b63:0xafc2ec3a033d5eeb!8m2!3d16.0679495!4d108.2232911!16s%2Fg%2F11wqtkbc2s!19sChIJYytdRW4ZQjER6149Azrswq8?authuser=0&hl=en&rclk=1,Vietnamese restaurant,4.9,895,₫100–200K,"49 Nguyễn Thái Học, Hải Châu 1, Hải Châu, Đà Nẵng 550000",16.0679379,108.2233124,342454487,2025-03-21 16:11:45.233,Hải Châu
45,TOM82 DANANG Restaurant - 다낭 똠팔이,https://www.google.com/maps/place/TOM82+DANANG+Restaurant+-+%EB%8B%A4%EB%82%AD+%EB%98%A0%ED%8C%94%EC%9D%B4/data=!4m7!3m6!1s0x314219c2de719445:0xb4cc3b6f7e04c73a!8m2!3d16.0650365!4d108.2215179!16s%2Fg%2F11sd5g35gt!19sChIJRZRx3sIZQjEROscEfm87zLQ?authuser=0&hl=en&rclk=1,Restaurant,4.8,462,"₫1,000,000+","61 Thái Phiên, Phước Ninh, Hải Châu, Đà Nẵng 550000",16.0650616,108.2215652,934777005,2025-03-21 18:21:34.210,Hải Châu
46,Gujarat Indian Restaurant Da nang,https://www.google.com/maps/place/Gujarat+Indian+Restaurant+Da+nang/data=!4m7!3m6!1s0x3142172a2c4a5cb3:0x726ecf4296b0c395!8m2!3d16.0515352!4d108.2459283!16s%2Fg%2F11txhr7kc6!19sChIJs1xKLCoXQjERlcOwlkLPbnI?authuser=0&hl=en&rclk=1,Indian restaurant,4.7,3749,₫100–300K,"39-41 Đ. Đỗ Bá, WARD, Ngũ Hành Sơn, Đà Nẵng 550000",16.0515633,108.2459412,395528747,2025-03-21 19:28:42.213,Ngũ Hành Sơn
47,Xóm Mới Garden Đà Nẵng (씀모이가든 다낭),https://www.google.com/maps/place/X%C3%B3m+M%E1%BB%9Bi+Garden+%C4%90%C3%A0+N%E1%BA%B5ng+%28%EC%94%80%EB%AA%A8%EC%9D%B4%EA%B0%80%EB%93%A0+%EB%8B%A4%EB%82%AD%29/data=!4m7!3m6!1s0x314219b8ec8aa88d:0x549d60ff0ccf0b49!8m2!3d16.0635047!4d108.2232139!16s%2Fg%2F11vryhb3c0!19sChIJjaiK7LgZQjERSQvPDP9gnVQ?authuser=0&hl=en&rclk=1,Vietnamese restaurant,4.9,4958,₫100–300K,"222 Trần Phú,phường Phước Ninh, Đà Nẵng, 552760",16.0635624,108.2231903,931951004,2025-03-21 20:15:15.737,Không xác định
48,Brown pepper 브라운페퍼 다낭,https://www.google.com/maps/place/Brown+pepper+%EB%B8%8C%EB%9D%BC%EC%9A%B4%ED%8E%98%ED%8D%BC+%EB%8B%A4%EB%82%AD/data=!4m7!3m6!1s0x31421905016c7c47:0x98fd1df8c51f1311!8m2!3d16.0654566!4d108.2241352!16s%2Fg%2F11y28_grv1!19sChIJR3xsAQUZQjERERMfxfgd_Zg?authuser=0&hl=en&rclk=1,Western restaurant,4.9,363,Unknown,"200 Bạch Đằng, Phước Ninh, Hải Châu, Đà Nẵng 550000",16.0654373,108.2241898,898213530,2025-03-21 21:00:50.573,Hải Châu
49,L'Italiano Riverside DaNang,https://www.google.com/maps/place/L%27Italiano+Riverside+DaNang/data=!4m7!3m6!1s0x3142196693e4a3bb:0x92c84d4b7ffa80e8!8m2!3d16.0632508!4d108.2302591!16s%2Fg%2F11vypz484z!19sChIJu6Pkk2YZQjER6ID6f0tNyJI?authuser=0&hl=en&rclk=1,Restaurant,5.0,581,₫200–300K,"493 Đ. Trần Hưng Đạo, An Hải Trung, Sơn Trà, Đà Nẵng 550000",16.0633125,108.2303162,911500440,2025-03-21 21:18:59.280,Sơn Trà
50,My Hanh Seafood,https://www.google.com/maps/place/My+Hanh+Seafood/data=!4m7!3m6!1s0x314217ee3600dbb9:0xd51ecb708db1b26c!8m2!3d16.065385!4d108.2460442!16s%2Fg%2F11h5f6yvdc!19sChIJudsANu4XQjERbLKxjXDLHtU?authuser=0&hl=en&rclk=1,Seafood restaurant,4.7,3332,Unknown,"3-5 Võ Nguyên Giáp, Phước Mỹ, Sơn Trà, Đà Nẵng 550000",16.0654373,108.2460632,967748668,2025-03-21 22:02:17.977,Sơn Trà
51,IVEGAN SUPERSHOP Đà Nẵng,https://www.google.com/maps/place/IVEGAN+SUPERSHOP+%C4%90%C3%A0+N%E1%BA%B5ng/data=!4m7!3m6!1s0x31421729485e6249:0xcec386c3b4499394!8m2!3d16.0487676!4d108.2464587!16s%2Fg%2F11ng5jfs7f!19sChIJSWJeSCkXQjERlJNJtMOGw84?authuser=0&hl=en&rclk=1,Vegan restaurant,4.8,1315,₫100–200K,"Lô 31 An Thượng 4, Bắc Mỹ Phú, Ngũ Hành Sơn, Đà Nẵng 550000",16.0488129,108.2464371,2366522331,2025-03-22 11:58:19.500,Ngũ Hành Sơn
52,Gypsy Rooftop Restaurant & Bar,https://www.google.com/maps/place/Gypsy+Rooftop+Restaurant+%26+Bar/data=!4m7!3m6!1s0x3142190c4beda5ef:0x14568ecf8256aa25!8m2!3d16.0826849!4d108.2212587!16s%2Fg%2F11khkc9s2m!19sChIJ76XtSwwZQjERJapWgs-OVhQ?authuser=0&hl=en&rclk=1,Restaurant,4.9,1313,"₫1,000,000+","20 Đống Đa, Street, Hải Châu, Đà Nẵng 550000",16.0826875,108.2213125,767194074,2025-04-25 20:23:14.077,Hải Châu
53,Bistecca Italian Restaurant in Da Nang,https://www.google.com/maps/place/Bistecca+Italian+Restaurant+in+Da+Nang/data=!4m7!3m6!1s0x3142196de9ccba2f:0x7233cc1778c9e453!8m2!3d16.0827532!4d108.2212419!16s%2Fg%2F11f73ypv2v!19sChIJL7rM6W0ZQjERU-TJeBfMM3I?authuser=0&hl=en&rclk=1,Restaurant,4.9,982,Unknown,"20 Đống Đa, Thuận Phước, Hải Châu, Đà Nẵng 550000",16.0828125,108.2211875,702663456,2025-04-25 21:10:46.627,Hải Châu
55,My Casa,https://www.google.com/maps/place/My+Casa/data=!4m7!3m6!1s0x31421785e49d43cf:0x6faad102267d0598!8m2!3d16.0717751!4d108.2427547!16s%2Fg%2F1q62bw489!19sChIJz0Od5IUXQjERmAV9JgLRqm8?authuser=0&hl=en&rclk=1,Spanish restaurant,4.6,1737,Unknown,"53 Morrison, Phước Mỹ, Sơn Trà, Đà Nẵng 553422",16.0718125,108.2428125,343268772,2025-04-26 16:12:09.620,Sơn Trà
56,BẾP KIM - 레스토랑 (Kim Restaurant and Coffee),https://www.google.com/maps/place/B%E1%BA%BEP+KIM+-+%EB%A0%88%EC%8A%A4%ED%86%A0%EB%9E%91+%28Kim+Restaurant+and+Coffee%29/data=!4m7!3m6!1s0x314219b1ea033bc9:0x7e7bd8793e76cd6!8m2!3d16.074872!4d108.2210984!16s%2Fg%2F11l38ff09l!19sChIJyTsD6rEZQjER1mznk4e95wc?authuser=0&hl=en&rclk=1,Vietnamese restaurant,4.8,346,₫100–200K,"37 Quang Trung, Hải Châu 1, Hải Châu, Đà Nẵng 550000",16.0748125,108.2210625,905588507,2025-04-26 17:05:08.920,Hải Châu
57,Bếp Hên,https://www.google.com/maps/place/B%E1%BA%BFp+H%C3%AAn/data=!4m7!3m6!1s0x314219b85d3066c5:0x49abed782034b9e8!8m2!3d16.0639161!4d108.2210361!16s%2Fg%2F11h0vttspf!19sChIJxWYwXbgZQjER6Lk0IHjtq0k?authuser=0&hl=en&rclk=1,Vietnamese restaurant,4.5,623,₫100–200K,"47 Lê Hồng Phong, Phước Ninh, Hải Châu, Đà Nẵng 84236",16.0639375,108.2210625,935337705,2025-04-26 19:59:12.503,Hải Châu
59,Fatfish Restaurant & Lounge Bar,https://www.google.com/maps/place/Fatfish+Restaurant+%26+Lounge+Bar/data=!4m7!3m6!1s0x3142182ceeed1a37:0xe27c84359c53b1e5!8m2!3d16.0648589!4d108.2301009!16s%2Fg%2F11b8tnp0rh!19sChIJNxrt7iwYQjER5bFTnDWEfOI?authuser=0&hl=en&rclk=1,Fusion restaurant,4.4,849,₫₫₫,"439 Đ. Trần Hưng Đạo, An Hải Trung, Sơn Trà, Đà Nẵng 550000",16.0648125,108.2300625,2363945707,2025-04-26 21:27:11.647,Sơn Trà
60,The Nomad Kitchen,https://www.google.com/maps/place/The+Nomad+Kitchen/data=!4m7!3m6!1s0x314217ba67f110c9:0xb08b0bde0bae84ee!8m2!3d16.0507892!4d108.2463792!16s%2Fg%2F11qt0s0yz2!19sChIJyRDxZ7oXQjER7oSuC94Li7A?authuser=0&hl=en&rclk=1,Spanish restaurant,4.7,744,₫100–200K,"21-23 An Thượng 32, Bắc Mỹ Phú, Ngũ Hành Sơn, Đà Nẵng 550000",16.0508125,108.2464375,961061173,2025-04-26 22:42:19.830,Ngũ Hành Sơn
61,Pink Salt Restaurant,https://www.google.com/maps/place/Pink+Salt+Restaurant/data=!4m7!3m6!1s0x31421bd67d60964f:0xe117a8d6a3bcd740!8m2!3d16.066905!4d108.2445128!16s%2Fg%2F11vf1bxgkn!19sChIJT5ZgfdYbQjERQNe8o9aoF-E?authuser=0&hl=en&rclk=1,Fusion restaurant,4.9,1249,Unknown,"79 Hà Bổng, Phước Mỹ, Sơn Trà, Đà Nẵng 50000",16.0669375,108.2445625,898201090,2025-04-26 23:32:28.763,Sơn Trà
62,All Seasons Buffet Da Nang,https://www.google.com/maps/place/All+Seasons+Buffet+Da+Nang/data=!4m7!3m6!1s0x3142177abb885d07:0x8a7c9d0d632f15d9!8m2!3d16.055459!4d108.2430332!16s%2Fg%2F11lds3gkxv!19sChIJB12Iu3oXQjER2RUvYw2dfIo?authuser=0&hl=en&rclk=1,Restaurant,4.9,2109,"₫1,000,000+","193 Nguyễn Văn Thoại, An Hải Đông, Ngũ Hành Sơn, Đà Nẵng 550000",16.0554375,108.2430625,764068111,2025-04-27 00:14:55.250,Ngũ Hành Sơn
63,PapaSteak Điện Biên Phủ,https://www.google.com/maps/place/PapaSteak+%C4%90i%E1%BB%87n+Bi%C3%AAn+Ph%E1%BB%A7/data=!4m7!3m6!1s0x314219857d0de861:0x838904229a1257e6!8m2!3d16.0654147!4d108.1953212!16s%2Fg%2F11snyvggt9!19sChIJYegNfYUZQjER5lcSmiIEiYM?authuser=0&hl=en&rclk=1,Restaurant,4.4,356,₫100–200K,"225 Điện Biên Phủ, Chính Gián, Thanh Khê, Đà Nẵng 550000",16.0654375,108.1953125,941356868,2025-04-27 09:37:14.230,Thanh Khê
64,Torino Bakery,https://www.google.com/maps/place/Torino+Bakery/data=!4m7!3m6!1s0x3142177bf63ad1f3:0xbda11aae4316b860!8m2!3d16.0487702!4d108.2408326!16s%2Fg%2F11d_72zjcd!19sChIJ89E69nsXQjERYLgWQ64aob0?authuser=0&hl=en&rclk=1,Bakery,4.7,1075,"₫1–200,000","162 -164, 164 Châu Thị Vĩnh Tế, Ngũ Hành Sơn, Đà Nẵng",16.0488125,108.2408125,932046296,2025-04-27 09:58:51.373,Ngũ Hành Sơn
65,Cabanon Palace,https://www.google.com/maps/place/Cabanon+Palace/data=!4m7!3m6!1s0x314219cf845a3c6b:0xc5938cb8fc09c57a!8m2!3d16.0737348!4d108.2408397!16s%2Fg%2F11gr1625yh!19sChIJazxahM8ZQjEResUJ_LiMk8U?authuser=0&hl=en&rclk=1,French restaurant,4.8,1231,"₫1,000,000+","Cordial Grand Hotel, 21th floor, 27-29 Loseby, Street, Sơn Trà, Đà Nẵng 550000",16.0736875,108.2408125,796653020,2025-04-26 20:42:30.087,Sơn Trà
66,The View - Yacht Restaurant Da Nang,https://www.google.com/maps/place/The+View+-+Yacht+Restaurant+Da+Nang/data=!4m7!3m6!1s0x31423dbb8bd2c75d:0xd7d7d7f61ed0ac44!8m2!3d16.0641685!4d108.2296915!16s%2Fg%2F11v3_qbsjp!19sChIJXcfSi7s9QjERRKzQHvbX19c?authuser=0&hl=en&rclk=1,Seafood restaurant,4.7,685,Unknown,"Du thuyền Happy Yacht, An Hải, Hải Châu, Đà Nẵng 50400",16.0641875,108.2296875,898173183,2025-05-01 22:48:27.757,Hải Châu
67,Bếp Quê,https://www.google.com/maps/place/B%E1%BA%BFp+Qu%C3%AA/data=!4m7!3m6!1s0x314219184d84e499:0x510b26070869c873!8m2!3d16.0659438!4d108.2237539!16s%2Fg%2F11kb94jqbw!19sChIJmeSETRgZQjERc8hpCAcmC1E?authuser=0&hl=en&rclk=1,Vietnamese restaurant,4.8,2239,₫100–200K,"187 Trần Phú, Phước Ninh, Hải Châu, Đà Nẵng 50000",16.0659375,108.2238125,799429739,2025-05-01 23:14:24.790,Hải Châu
68,Riverside Terrace Restaurant (formerly L'Italiano Riverside DaNang),https://www.google.com/maps/place/Riverside+Terrace+Restaurant+%28formerly+L%27Italiano+Riverside+DaNang%29/data=!4m7!3m6!1s0x3142196693e4a3bb:0x92c84d4b7ffa80e8!8m2!3d16.0632508!4d108.2302591!16s%2Fg%2F11vypz484z!19sChIJu6Pkk2YZQjER6ID6f0tNyJI?authuser=0&hl=en&rclk=1,Italian restaurant,5.0,711,₫200–300K,"493 Đ. Trần Hưng Đạo, An Hải Trung, Sơn Trà, Đà Nẵng 550000",16.0633125,108.2303125,911500440,2025-05-01 23:44:44.150,Sơn Trà
69,Ơ Kìa - Seafood Restaurant,https://www.google.com/maps/place/%C6%A0+K%C3%ACa+-+Seafood+Restaurant/data=!4m7!3m6!1s0x3142199eef80bd7d:0x74fe36a686707bc2!8m2!3d16.0801078!4d108.2230986!16s%2Fg%2F11tfmznbvm!19sChIJfb2A754ZQjERwntwhqY2_nQ?authuser=0&hl=en&rclk=1,Seafood restaurant,4.8,1127,Unknown,"7 Trần Phú, Thạch Thang, Hải Châu, Đà Nẵng 550000",16.0800625,108.2230625,906430707,2025-05-02 00:26:37.173,Hải Châu
70,Roots Plant-based Cafe - Healthy Vegan restaurant,https://www.google.com/maps/place/Roots+Plant-based+Cafe+-+Healthy+Vegan+restaurant/data=!4m7!3m6!1s0x3142171cef03cf01:0x8bc2a190f42f983!8m2!3d16.0486723!4d108.2478556!16s%2Fg%2F11fd4prghb!19sChIJAc8D7xwXQjERg_lCDxkqvAg?authuser=0&hl=en&rclk=1,Vegan restaurant,4.7,2223,₫100–200K,"26-27 Trần Bạch Đằng, Bắc Mỹ Phú, Ngũ Hành Sơn, Đà Nẵng 550000",16.0486875,108.2478125,865528252,2025-05-02 00:59:23.850,Ngũ Hành Sơn
71,Bikini Bottom Express,https://www.google.com/maps/place/Bikini+Bottom+Express/data=!4m7!3m6!1s0x3142176fe447155f:0x9c6983231589d465!8m2!3d16.0487632!4d108.2475435!16s%2Fg%2F11fj5s7t0z!19sChIJXxVH5G8XQjERZdSJFSODaZw?authuser=0&hl=en&rclk=1,American restaurant,4.7,5325,₫100–200K,"45-47 An Thượng 2, Bắc Mỹ An, Ngũ Hành Sơn, Đà Nẵng 550000",16.0488125,108.2475625,934916911,2025-05-02 01:42:36.320,Ngũ Hành Sơn
